{"type": "FeatureCollection", "features": [{"type": "Feature", "properties": {"tipo": "hospital", "nome": "EMEC"}, "geometry": {"type": "Point", "coordinates": [-38.9541605, -12.2552293]}}, {"type": "Feature", "properties": {"tipo": "taxi", "nome": "Ponto de T\u00e1xi da Rodovi\u00e1ria"}, "geometry": {"type": "Point", "coordinates": [-38.9582327, -12.2589626]}}, {"type": "Feature", "properties": {"tipo": "place_of_worship", "nome": "Assembl\u00e9ia de Deus"}, "geometry": {"type": "Point", "coordinates": [-38.9578488, -12.2611693]}}, {"type": "Feature", "properties": {"tipo": "pharmacy", "nome": "Essencia Vitae"}, "geometry": {"type": "Point", "coordinates": [-38.9585792, -12.2556628]}}, {"type": "Feature", "properties": {"tipo": "bank", "nome": "Banco do Brasil"}, "geometry": {"type": "Point", "coordinates": [-38.952889, -12.2552558]}}, {"type": "Feature", "properties": {"tipo": "restaurant", "nome": "Neg\u00f3cio da China"}, "geometry": {"type": "Point", "coordinates": [-38.9549811, -12.2560946]}}, {"type": "Feature", "properties": {"tipo": "clinic", "nome": "Instituto de Radiologia de Feira de Santana"}, "geometry": {"type": "Point", "coordinates": [-38.9584358, -12.2556642]}}, {"type": "Feature", "properties": {"tipo": "pharmacy", "nome": "Farm\u00e1cia do Caro\u00e1"}, "geometry": {"type": "Point", "coordinates": [-38.9533646, -12.2552941]}}, {"type": "Feature", "properties": {"tipo": "fast_food", "nome": "Giraffas"}, "geometry": {"type": "Point", "coordinates": [-38.9602818, -12.2557297]}}, {"type": "Feature", "properties": {"tipo": "clinic", "nome": "COF - Cl\u00ednica de Otorrino e Fono"}, "geometry": {"type": "Point", "coordinates": [-38.9544264, -12.2559321]}}, {"type": "Feature", "properties": {"tipo": "fast_food", "nome": "Subway"}, "geometry": {"type": "Point", "coordinates": [-38.9654866, -12.2548963]}}, {"type": "Feature", "properties": {"tipo": "pharmacy", "nome": "Silva"}, "geometry": {"type": "Point", "coordinates": [-38.9539508, -12.2557658]}}, {"type": "Feature", "properties": {"tipo": "school", "nome": "Instituto de Educa\u00e7\u00e3o Gast\u00e3o Guimar\u00e3es"}, "geometry": {"type": "Point", "coordinates": [-38.9570137, -12.2572769]}}, {"type": "Feature", "properties": {"tipo": "restaurant", "nome": "Point da Massa"}, "geometry": {"type": "Point", "coordinates": [-38.956006, -12.256727]}}, {"type": "Feature", "properties": {"tipo": "fuel", "nome": "Posto Nordeste"}, "geometry": {"type": "Point", "coordinates": [-38.967241, -12.259773]}}, {"type": "Feature", "properties": {"tipo": "bank", "nome": "Caixa Econ\u00f4mica Federal"}, "geometry": {"type": "Point", "coordinates": [-38.9625079, -12.2556419]}}, {"type": "Feature", "properties": {"tipo": "bank", "nome": "Bradesco"}, "geometry": {"type": "Point", "coordinates": [-38.9582475, -12.2571831]}}, {"type": "Feature", "properties": {"tipo": "bar", "nome": "Portal Beer"}, "geometry": {"type": "Point", "coordinates": [-38.9581188, -12.2576025]}}, {"type": "Feature", "properties": {"tipo": "clinic", "nome": "ICP - Instituto do Cora\u00e7\u00e3o e do Pulm\u00e3o"}, "geometry": {"type": "Point", "coordinates": [-38.9550396, -12.2570043]}}, {"type": "Feature", "properties": {"tipo": "school", "nome": "CCAA"}, "geometry": {"type": "Point", "coordinates": [-38.9616008, -12.2556257]}}, {"type": "Feature", "properties": {"tipo": "pharmacy", "nome": "Farm\u00e1cia do Caro\u00e1"}, "geometry": {"type": "Point", "coordinates": [-38.9540718, -12.2557683]}}, {"type": "Feature", "properties": {"tipo": "clinic", "nome": "IDM - Instituto de Diagnost\u00edco da Mulher"}, "geometry": {"type": "Point", "coordinates": [-38.9551365, -12.2558101]}}, {"type": "Feature", "properties": {"tipo": "bank", "nome": "Ita\u00fa"}, "geometry": {"type": "Point", "coordinates": [-38.9549922, -12.25636]}}, {"type": "Feature", "properties": {"tipo": "bank", "nome": "Santander"}, "geometry": {"type": "Point", "coordinates": [-38.9577446, -12.2551076]}}, {"type": "Feature", "properties": {"tipo": "pharmacy", "nome": "Silva"}, "geometry": {"type": "Point", "coordinates": [-38.9565012, -12.2551556]}}, {"type": "Feature", "properties": {"tipo": "school", "nome": "Col\u00e9gio Acesso"}, "geometry": {"type": "Point", "coordinates": [-38.95856, -12.2550966]}}, {"type": "Feature", "properties": {"tipo": "bank", "nome": "Ita\u00fa"}, "geometry": {"type": "Point", "coordinates": [-38.955373, -12.2551595]}}, {"type": "Feature", "properties": {"tipo": "bank", "nome": "Caixa Econ\u00f4mica Federal"}, "geometry": {"type": "Point", "coordinates": [-38.9573048, -12.2561031]}}, {"type": "Feature", "properties": {"tipo": "bank", "nome": "Bradesco"}, "geometry": {"type": "Point", "coordinates": [-38.9563655, -12.2557781]}}, {"type": "Feature", "properties": {"tipo": "pharmacy", "nome": "P\u00e3o Dourado"}, "geometry": {"type": "Point", "coordinates": [-38.958544, -12.2568953]}}, {"type": "Feature", "properties": {"tipo": "clinic", "nome": "LADE - Laborat\u00f3rio de Diagn\u00f3stico Especializado"}, "geometry": {"type": "Point", "coordinates": [-38.9567361, -12.2567107]}}, {"type": "Feature", "properties": {"tipo": "fuel", "nome": "Hotel Londrina"}, "geometry": {"type": "Point", "coordinates": [-38.9591199, -12.2595521]}}, {"type": "Feature", "properties": {"tipo": "fast_food", "nome": "Pastelaria Brasil"}, "geometry": {"type": "Point", "coordinates": [-38.9589885, -12.259555]}}, {"type": "Feature", "properties": {"tipo": "restaurant", "nome": "Doce Massa"}, "geometry": {"type": "Point", "coordinates": [-38.9588893, -12.258728]}}, {"type": "Feature", "properties": {"tipo": "fast_food", "nome": "Empada Carioca"}, "geometry": {"type": "Point", "coordinates": [-38.9544196, -12.2549469]}}, {"type": "Feature", "properties": {"tipo": "fuel", "nome": "Academia Feira Fitness"}, "geometry": {"type": "Point", "coordinates": [-38.9603733, -12.2600783]}}, {"type": "Feature", "properties": {"tipo": "restaurant", "nome": "Ki Mukeka"}, "geometry": {"type": "Point", "coordinates": [-38.9559322, -12.2551194]}}, {"type": "Feature", "properties": {"tipo": "hospital", "nome": "Hospital Ortop\u00e9dico"}, "geometry": {"type": "Point", "coordinates": [-38.9570536, -12.2557951]}}, {"type": "Feature", "properties": {"tipo": "pharmacy", "nome": "Farm\u00f4"}, "geometry": {"type": "Point", "coordinates": [-38.9572628, -12.2557901]}}, {"type": "Feature", "properties": {"tipo": "pharmacy", "nome": "Farm\u00e1cia Silva"}, "geometry": {"type": "Point", "coordinates": [-38.9582391, -12.2556696]}}, {"type": "Feature", "properties": {"tipo": "bank", "nome": "Santander"}, "geometry": {"type": "Point", "coordinates": [-38.9578961, -12.2556903]}}, {"type": "Feature", "properties": {"tipo": "pharmacy", "nome": "A F\u00f3rmula"}, "geometry": {"type": "Point", "coordinates": [-38.9571716, -12.2557899]}}, {"type": "Feature", "properties": {"tipo": "fuel", "nome": "Fot\u00f3tica"}, "geometry": {"type": "Point", "coordinates": [-38.955547, -12.2558213]}}, {"type": "Feature", "properties": {"tipo": "fuel", "nome": "Feira Plaza Hotel"}, "geometry": {"type": "Point", "coordinates": [-38.960096, -12.2600674]}}, {"type": "Feature", "properties": {"tipo": "pharmacy", "nome": "Pague Menos"}, "geometry": {"type": "Point", "coordinates": [-38.9596231, -12.255051]}}, {"type": "Feature", "properties": {"tipo": "restaurant", "nome": "Novo Sabor"}, "geometry": {"type": "Point", "coordinates": [-38.9627562, -12.259386]}}, {"type": "Feature", "properties": {"tipo": "restaurant", "nome": "Chal\u00e9 Catarinense"}, "geometry": {"type": "Point", "coordinates": [-38.9593871, -12.2550664]}}, {"type": "Feature", "properties": {"tipo": "fuel", "nome": "Nordeste Irriga\u00e7\u00e3o e M\u00e1quinas"}, "geometry": {"type": "Point", "coordinates": [-38.9639573, -12.2591128]}}, {"type": "Feature", "properties": {"tipo": "bank", "nome": "Banco do Brasil"}, "geometry": {"type": "Point", "coordinates": [-38.9549304, -12.2558738]}}, {"type": "Feature", "properties": {"tipo": "bank", "nome": "Banco do Brasil"}, "geometry": {"type": "Point", "coordinates": [-38.9642071, -12.2559183]}}, {"type": "Feature", "properties": {"tipo": "bank", "nome": "Bradesco"}, "geometry": {"type": "Point", "coordinates": [-38.9651435, -12.2545222]}}, {"type": "Feature", "properties": {"tipo": "atm", "nome": "Ita\u00fa"}, "geometry": {"type": "Point", "coordinates": [-38.9652132, -12.2551665]}}, {"type": "Feature", "properties": {"tipo": "restaurant", "nome": "Lim\u00e3o Drinks"}, "geometry": {"type": "Point", "coordinates": [-38.9625894, -12.2555216]}}, {"type": "Feature", "properties": {"tipo": "fuel", "nome": "Posto Alameda"}, "geometry": {"type": "Point", "coordinates": [-38.9487432, -12.2560352]}}, {"type": "Feature", "properties": {"tipo": "restaurant", "nome": "Ki Mukeka"}, "geometry": {"type": "Point", "coordinates": [-38.9526461, -12.2558795]}}, {"type": "Feature", "properties": {"tipo": "bar", "nome": "Bar Ponto do Zequinha"}, "geometry": {"type": "Point", "coordinates": [-38.9519348, -12.255899]}}, {"type": "Feature", "properties": {"tipo": "clinic", "nome": "IMME"}, "geometry": {"type": "Point", "coordinates": [-38.9495747, -12.2559938]}}, {"type": "Feature", "properties": {"tipo": "clinic", "nome": "Cl\u00ednica Trauma Ortop\u00e9dica Ben\u00edcio C. Cavalcanti"}, "geometry": {"type": "Point", "coordinates": [-38.9490919, -12.2554801]}}, {"type": "Feature", "properties": {"tipo": "clinic", "nome": "Cliort"}, "geometry": {"type": "Point", "coordinates": [-38.9585759, -12.256581]}}, {"type": "Feature", "properties": {"tipo": "hospital", "nome": "HTO Hospital Geral"}, "geometry": {"type": "Point", "coordinates": [-38.9522834, -12.2553543]}}, {"type": "Feature", "properties": {"tipo": "post_office", "nome": "Physios Fisioterapia"}, "geometry": {"type": "Point", "coordinates": [-38.9551692, -12.2543777]}}, {"type": "Feature", "properties": {"tipo": "restaurant", "nome": "Alla Spina"}, "geometry": {"type": "Point", "coordinates": [-38.9561663, -12.254884]}}, {"type": "Feature", "properties": {"tipo": "restaurant", "nome": "Spacca Napoli"}, "geometry": {"type": "Point", "coordinates": [-38.956521, -12.2548982]}}, {"type": "Feature", "properties": {"tipo": "school", "nome": "Col\u00e9gio Padre Ov\u00eddio"}, "geometry": {"type": "Point", "coordinates": [-38.965787, -12.2599688]}}, {"type": "Feature", "properties": {"tipo": "restaurant", "nome": "Barroquinha"}, "geometry": {"type": "Point", "coordinates": [-38.9706696, -12.2480406]}}, {"type": "Feature", "properties": {"tipo": "school", "nome": "Col\u00e9gio Santo Ant\u00f4nio"}, "geometry": {"type": "Point", "coordinates": [-38.9471027, -12.2625947]}}, {"type": "Feature", "properties": {"tipo": "place_of_worship", "nome": "Igreja dos Capuchinhos"}, "geometry": {"type": "Point", "coordinates": [-38.9470538, -12.2629683]}}, {"type": "Feature", "properties": {"tipo": "courthouse", "nome": "F\u00f3rum Filinto Bastos"}, "geometry": {"type": "Point", "coordinates": [-38.962251, -12.2498193]}}, {"type": "Feature", "properties": {"tipo": "bicycle_parking", "nome": "Todo Dia"}, "geometry": {"type": "Point", "coordinates": [-38.9625187, -12.2531221]}}, {"type": "Feature", "properties": {"tipo": "taxi", "nome": "M\u00f3dulo Tratores"}, "geometry": {"type": "Point", "coordinates": [-38.9577779, -12.2579158]}}, {"type": "Feature", "properties": {"tipo": "school", "nome": "Col\u00e9gio Independ\u00eancia"}, "geometry": {"type": "Point", "coordinates": [-38.9522446, -12.2640636]}}, {"type": "Feature", "properties": {"tipo": "fast_food", "nome": "Subway"}, "geometry": {"type": "Point", "coordinates": [-38.9572567, -12.2551506]}}, {"type": "Feature", "properties": {"tipo": "place_of_worship", "nome": "Comunidade Crist\u00e3 Shalom Adonai"}, "geometry": {"type": "Point", "coordinates": [-38.9496865, -12.2645787]}}, {"type": "Feature", "properties": {"tipo": "restaurant", "nome": "Kilo Mania"}, "geometry": {"type": "Point", "coordinates": [-38.9526463, -12.2637054]}}, {"type": "Feature", "properties": {"tipo": "fuel", "nome": "Vila Parreiras"}, "geometry": {"type": "Point", "coordinates": [-38.9528922, -12.2598516]}}, {"type": "Feature", "properties": {"tipo": "restaurant", "nome": "Bacalhau do Mendes"}, "geometry": {"type": "Point", "coordinates": [-38.9505732, -12.2581866]}}, {"type": "Feature", "properties": {"tipo": "place_of_worship", "nome": "IEF - Igreja Evang\u00e9lica Fundamentalista"}, "geometry": {"type": "Point", "coordinates": [-38.9496082, -12.2604664]}}, {"type": "Feature", "properties": {"tipo": "bicycle_parking", "nome": "Madereira Cerqueira"}, "geometry": {"type": "Point", "coordinates": [-38.9495492, -12.2591745]}}, {"type": "Feature", "properties": {"tipo": "doctors", "nome": "Nutriclin"}, "geometry": {"type": "Point", "coordinates": [-38.9533213, -12.2551117]}}, {"type": "Feature", "properties": {"tipo": "restaurant", "nome": "Tchin Yen Bao"}, "geometry": {"type": "Point", "coordinates": [-38.9508313, -12.2579965]}}, {"type": "Feature", "properties": {"tipo": "school", "nome": "ECASSA"}, "geometry": {"type": "Point", "coordinates": [-38.9464708, -12.2633468]}}, {"type": "Feature", "properties": {"tipo": "restaurant", "nome": "Churrascaria Brasil"}, "geometry": {"type": "Point", "coordinates": [-38.9478687, -12.2642658]}}, {"type": "Feature", "properties": {"tipo": "bar", "nome": "Bar 2 de Julho"}, "geometry": {"type": "Point", "coordinates": [-38.9483507, -12.2628336]}}, {"type": "Feature", "properties": {"tipo": "kindergarten", "nome": "Creche Escola Princ\u00edpios"}, "geometry": {"type": "Point", "coordinates": [-38.9482715, -12.2617038]}}, {"type": "Feature", "properties": {"tipo": "fuel", "nome": "Posto Centro"}, "geometry": {"type": "Point", "coordinates": [-38.9731768, -12.2543649]}}, {"type": "Feature", "properties": {"tipo": "restaurant", "nome": "Pasta Fast"}, "geometry": {"type": "Point", "coordinates": [-38.9483888, -12.2486049]}}, {"type": "Feature", "properties": {"tipo": "restaurant", "nome": "Banho Maria Cuscuzeria"}, "geometry": {"type": "Point", "coordinates": [-38.9517677, -12.2586052]}}, {"type": "Feature", "properties": {"tipo": "bar", "nome": "Seu Z\u00e9 Lounge Bar"}, "geometry": {"type": "Point", "coordinates": [-38.9531356, -12.2518999]}}, {"type": "Feature", "properties": {"tipo": "college", "nome": "FAT - Faculdade An\u00edsio Teixeira"}, "geometry": {"type": "Point", "coordinates": [-38.9520632, -12.2580752]}}, {"type": "Feature", "properties": {"tipo": "bar", "nome": "Botekim"}, "geometry": {"type": "Point", "coordinates": [-38.948679, -12.2475435]}}, {"type": "Feature", "properties": {"tipo": "fast_food", "nome": "Acaraj\u00e9"}, "geometry": {"type": "Point", "coordinates": [-38.9482929, -12.248077]}}, {"type": "Feature", "properties": {"tipo": "nightclub", "nome": "Kabana's Bar"}, "geometry": {"type": "Point", "coordinates": [-38.9454403, -12.2573221]}}, {"type": "Feature", "properties": {"tipo": "restaurant", "nome": "Kitas Pizza"}, "geometry": {"type": "Point", "coordinates": [-38.945214, -12.2563172]}}, {"type": "Feature", "properties": {"tipo": "restaurant", "nome": "Hotel Acalanto"}, "geometry": {"type": "Point", "coordinates": [-38.9569025, -12.2513676]}}, {"type": "Feature", "properties": {"tipo": "fast_food", "nome": "Pousada Kalil\u00e2ndia"}, "geometry": {"type": "Point", "coordinates": [-38.9577557, -12.2503134]}}, {"type": "Feature", "properties": {"tipo": "restaurant", "nome": "Amarelo Gema"}, "geometry": {"type": "Point", "coordinates": [-38.9572243, -12.2537735]}}, {"type": "Feature", "properties": {"tipo": "school", "nome": "Kumon"}, "geometry": {"type": "Point", "coordinates": [-38.9517661, -12.2570383]}}, {"type": "Feature", "properties": {"tipo": "fast_food", "nome": "A\u00e7a\u00ed do Jota"}, "geometry": {"type": "Point", "coordinates": [-38.9442332, -12.258356]}}, {"type": "Feature", "properties": {"tipo": "restaurant", "nome": "Behrmann"}, "geometry": {"type": "Point", "coordinates": [-38.9443187, -12.2600502]}}, {"type": "Feature", "properties": {"tipo": "bar", "nome": "Bregued\u00ea Show Bar"}, "geometry": {"type": "Point", "coordinates": [-38.9442176, -12.2622153]}}, {"type": "Feature", "properties": {"tipo": "fast_food", "nome": "Casa das Coxinhas"}, "geometry": {"type": "Point", "coordinates": [-38.944254, -12.2588205]}}, {"type": "Feature", "properties": {"tipo": "restaurant", "nome": "Chesmar"}, "geometry": {"type": "Point", "coordinates": [-38.9444267, -12.2631223]}}, {"type": "Feature", "properties": {"tipo": "bar", "nome": "Corti\u00e7o Drinks"}, "geometry": {"type": "Point", "coordinates": [-38.9442335, -12.2585249]}}, {"type": "Feature", "properties": {"tipo": "pharmacy", "nome": "Farm\u00e1cia Silva"}, "geometry": {"type": "Point", "coordinates": [-38.9443771, -12.2621959]}}, {"type": "Feature", "properties": {"tipo": "bar", "nome": "Filozophia"}, "geometry": {"type": "Point", "coordinates": [-38.9442069, -12.2573349]}}, {"type": "Feature", "properties": {"tipo": "nightclub", "nome": "Johnnie Club"}, "geometry": {"type": "Point", "coordinates": [-38.9441318, -12.2604435]}}, {"type": "Feature", "properties": {"tipo": "restaurant", "nome": "Faenza"}, "geometry": {"type": "Point", "coordinates": [-38.9442721, -12.2590984]}}, {"type": "Feature", "properties": {"tipo": "restaurant", "nome": "Paradinha Pastelaria"}, "geometry": {"type": "Point", "coordinates": [-38.9440245, -12.2573401]}}, {"type": "Feature", "properties": {"tipo": "restaurant", "nome": "Pepperoni"}, "geometry": {"type": "Point", "coordinates": [-38.9440565, -12.2580322]}}, {"type": "Feature", "properties": {"tipo": "bar", "nome": "Route 66"}, "geometry": {"type": "Point", "coordinates": [-38.9442498, -12.2634735]}}, {"type": "Feature", "properties": {"tipo": "restaurant", "nome": "Sat\u00ea"}, "geometry": {"type": "Point", "coordinates": [-38.9443716, -12.262023]}}, {"type": "Feature", "properties": {"tipo": "bar", "nome": "Sport Bar"}, "geometry": {"type": "Point", "coordinates": [-38.9442016, -12.2621053]}}, {"type": "Feature", "properties": {"tipo": "restaurant", "nome": "Ao Vento"}, "geometry": {"type": "Point", "coordinates": [-38.9440668, -12.2585404]}}, {"type": "Feature", "properties": {"tipo": "restaurant", "nome": "Teriyaki"}, "geometry": {"type": "Point", "coordinates": [-38.9440346, -12.2576335]}}, {"type": "Feature", "properties": {"tipo": "veterinary", "nome": "O Bicho"}, "geometry": {"type": "Point", "coordinates": [-38.9619382, -12.2510484]}}, {"type": "Feature", "properties": {"tipo": "restaurant", "nome": "Predileto"}, "geometry": {"type": "Point", "coordinates": [-38.962194, -12.2510853]}}, {"type": "Feature", "properties": {"tipo": "restaurant", "nome": "Saigon"}, "geometry": {"type": "Point", "coordinates": [-38.944842, -12.2583334]}}, {"type": "Feature", "properties": {"tipo": "pharmacy", "nome": "Pague Menos"}, "geometry": {"type": "Point", "coordinates": [-38.9541368, -12.2498175]}}, {"type": "Feature", "properties": {"tipo": "car_rental", "nome": "Localiza"}, "geometry": {"type": "Point", "coordinates": [-38.9547868, -12.2527423]}}, {"type": "Feature", "properties": {"tipo": "restaurant", "nome": "Chal\u00e9 Catarinense"}, "geometry": {"type": "Point", "coordinates": [-38.955032, -12.257244]}}, {"type": "Feature", "properties": {"tipo": "restaurant", "nome": "Boteco do Camar\u00e3o"}, "geometry": {"type": "Point", "coordinates": [-38.9480882, -12.2582244]}}, {"type": "Feature", "properties": {"tipo": "theatre", "nome": "Teatro Margarida Ribeiro"}, "geometry": {"type": "Point", "coordinates": [-38.9470894, -12.2584721]}}, {"type": "Feature", "properties": {"tipo": "restaurant", "nome": "Flor Maracuj\u00e1"}, "geometry": {"type": "Point", "coordinates": [-38.9562806, -12.253634]}}, {"type": "Feature", "properties": {"tipo": "pharmacy", "nome": "Ultrafarma"}, "geometry": {"type": "Point", "coordinates": [-38.9483759, -12.2487616]}}, {"type": "Feature", "properties": {"tipo": "cafe", "nome": "Vanille Caffeterie"}, "geometry": {"type": "Point", "coordinates": [-38.9480801, -12.2583595]}}, {"type": "Feature", "properties": {"tipo": "bar", "nome": "14 Bis"}, "geometry": {"type": "Point", "coordinates": [-38.9454236, -12.2556061]}}, {"type": "Feature", "properties": {"tipo": "pharmacy", "nome": "Farm\u00e1cia da Economia"}, "geometry": {"type": "Point", "coordinates": [-38.9447906, -12.2560933]}}, {"type": "Feature", "properties": {"tipo": "fast_food", "nome": "\u00c1rabe"}, "geometry": {"type": "Point", "coordinates": [-38.9447745, -12.2556218]}}, {"type": "Feature", "properties": {"tipo": "pub", "nome": "Antiqu\u00e1rio Pub"}, "geometry": {"type": "Point", "coordinates": [-38.9468688, -12.2536601]}}, {"type": "Feature", "properties": {"tipo": "bar", "nome": "Jeca Total"}, "geometry": {"type": "Point", "coordinates": [-38.9477939, -12.2541288]}}, {"type": "Feature", "properties": {"tipo": "restaurant", "nome": "La Pasta Place"}, "geometry": {"type": "Point", "coordinates": [-38.9526961, -12.2596755]}}, {"type": "Feature", "properties": {"tipo": "parking", "nome": "SAC"}, "geometry": {"type": "Point", "coordinates": [-38.9572799, -12.2581435]}}, {"type": "Feature", "properties": {"tipo": "doctors", "nome": "CAPS - Oscar Marques"}, "geometry": {"type": "Point", "coordinates": [-38.9598077, -12.2587073]}}, {"type": "Feature", "properties": {"tipo": "doctors", "nome": "Cl\u00ednica Femme"}, "geometry": {"type": "Point", "coordinates": [-38.9606642, -12.2586672]}}, {"type": "Feature", "properties": {"tipo": "hospital", "nome": "Cl\u00ednica S\u00e3o Felipe"}, "geometry": {"type": "Point", "coordinates": [-38.9614329, -12.2578995]}}, {"type": "Feature", "properties": {"tipo": "dentist", "nome": "HappyCLIN"}, "geometry": {"type": "Point", "coordinates": [-38.9607147, -12.25888]}}, {"type": "Feature", "properties": {"tipo": "college", "nome": "Instituto Pr\u00f3 Saber"}, "geometry": {"type": "Point", "coordinates": [-38.9596131, -12.2588954]}}, {"type": "Feature", "properties": {"tipo": "restaurant", "nome": "La Pasta"}, "geometry": {"type": "Point", "coordinates": [-38.9614392, -12.2577392]}}, {"type": "Feature", "properties": {"tipo": "doctors", "nome": "MedTrans"}, "geometry": {"type": "Point", "coordinates": [-38.9629894, -12.2583386]}}, {"type": "Feature", "properties": {"tipo": "restaurant", "nome": "Raro Sabor"}, "geometry": {"type": "Point", "coordinates": [-38.9588773, -12.2588865]}}, {"type": "Feature", "properties": {"tipo": "dentist", "nome": "Sobreira Centro Odontol\u00f3gico"}, "geometry": {"type": "Point", "coordinates": [-38.959954, -12.2589078]}}, {"type": "Feature", "properties": {"tipo": "hospital", "nome": "Unimed Feira de Santana"}, "geometry": {"type": "Point", "coordinates": [-38.9602636, -12.2588767]}}, {"type": "Feature", "properties": {"tipo": "college", "nome": "FAT - Faculdade An\u00edsio Teixeira"}, "geometry": {"type": "Point", "coordinates": [-38.949295, -12.2598996]}}, {"type": "Feature", "properties": {"tipo": "restaurant", "nome": "Stop Nil"}, "geometry": {"type": "Point", "coordinates": [-38.9562343, -12.2518661]}}, {"type": "Feature", "properties": {"tipo": "restaurant", "nome": "Wasabi"}, "geometry": {"type": "Point", "coordinates": [-38.9561777, -12.2538372]}}, {"type": "Feature", "properties": {"tipo": "restaurant", "nome": "Red Hashi"}, "geometry": {"type": "Point", "coordinates": [-38.9564275, -12.2520389]}}, {"type": "Feature", "properties": {"tipo": "pharmacy", "nome": "Drogasil"}, "geometry": {"type": "Point", "coordinates": [-38.9493849, -12.2560251]}}, {"type": "Feature", "properties": {"tipo": "restaurant", "nome": "Qian Qian"}, "geometry": {"type": "Point", "coordinates": [-38.9671692, -12.2593915]}}, {"type": "Feature", "properties": {"tipo": "place_of_worship", "nome": "Igreja Batista Central"}, "geometry": {"type": "Point", "coordinates": [-38.947424, -12.2554961]}}, {"type": "Feature", "properties": {"tipo": "school", "nome": "Sw\u00e1sthya Y\u00f4ga"}, "geometry": {"type": "Point", "coordinates": [-38.9484859, -12.2566887]}}, {"type": "Feature", "properties": {"tipo": "parking", "nome": "Hiper Frutas"}, "geometry": {"type": "Point", "coordinates": [-38.9444356, -12.2560985]}}, {"type": "Feature", "properties": {"tipo": "restaurant", "nome": "Sashimi"}, "geometry": {"type": "Point", "coordinates": [-38.9440547, -12.2581953]}}, {"type": "Feature", "properties": {"tipo": "car_wash", "nome": "Clube do Carro"}, "geometry": {"type": "Point", "coordinates": [-38.9493756, -12.2564688]}}, {"type": "Feature", "properties": {"tipo": "cafe", "nome": "Unique Cafe Lounge"}, "geometry": {"type": "Point", "coordinates": [-38.9561723, -12.2539738]}}, {"type": "Feature", "properties": {"tipo": "school", "nome": "Escola Castro Alves"}, "geometry": {"type": "Point", "coordinates": [-38.9614831, -12.2516774]}}, {"type": "Feature", "properties": {"tipo": "fuel", "nome": "Latic\u00ednios O Cafezinho"}, "geometry": {"type": "Point", "coordinates": [-38.9552022, -12.2628406]}}, {"type": "Feature", "properties": {"tipo": "school", "nome": "Col\u00e9gio Estadual de Feira de Santana"}, "geometry": {"type": "Point", "coordinates": [-38.9553738, -12.2591705]}}, {"type": "Feature", "properties": {"tipo": "bicycle_parking", "nome": "CI Plantas"}, "geometry": {"type": "Point", "coordinates": [-38.9551307, -12.2606968]}}, {"type": "Feature", "properties": {"tipo": "parking", "nome": "Well Park"}, "geometry": {"type": "Point", "coordinates": [-38.9552222, -12.2564405]}}, {"type": "Feature", "properties": {"tipo": "restaurant", "nome": "Mesa Quente"}, "geometry": {"type": "Point", "coordinates": [-38.9507281, -12.2645335]}}, {"type": "Feature", "properties": {"tipo": "bar", "nome": "Boteco do Camar\u00e3o"}, "geometry": {"type": "Point", "coordinates": [-38.9442431, -12.2586574]}}, {"type": "Feature", "properties": {"tipo": "car_rental", "nome": "AVA"}, "geometry": {"type": "Point", "coordinates": [-38.9554345, -12.2565103]}}, {"type": "Feature", "properties": {"tipo": "parking", "nome": "Dira Lima"}, "geometry": {"type": "Point", "coordinates": [-38.9563827, -12.255968]}}, {"type": "Feature", "properties": {"tipo": "bicycle_parking", "nome": "Loteria"}, "geometry": {"type": "Point", "coordinates": [-38.9526812, -12.2635979]}}, {"type": "Feature", "properties": {"tipo": "pharmacy", "nome": "Farm\u00e1cia Feira"}, "geometry": {"type": "Point", "coordinates": [-38.9529062, -12.2631654]}}, {"type": "Feature", "properties": {"tipo": "restaurant", "nome": "Piatto"}, "geometry": {"type": "Point", "coordinates": [-38.9572515, -12.2549768]}}, {"type": "Feature", "properties": {"tipo": "bicycle_parking", "nome": "Banco do Brasil"}, "geometry": {"type": "Point", "coordinates": [-38.9549743, -12.2557579]}}, {"type": "Feature", "properties": {"tipo": "pharmacy", "nome": "Farm\u00e1cia da Economia"}, "geometry": {"type": "Point", "coordinates": [-38.9529707, -12.2558575]}}, {"type": "Feature", "properties": {"tipo": "nightclub", "nome": "Espa\u00e7o Cultural Ch\u00e3o de Estrelas"}, "geometry": {"type": "Point", "coordinates": [-38.9452131, -12.2561936]}}, {"type": "Feature", "properties": {"tipo": "fast_food", "nome": "McDonald's"}, "geometry": {"type": "Point", "coordinates": [-38.9483673, -12.2560049]}}, {"type": "Feature", "properties": {"tipo": "restaurant", "nome": "Aprisco"}, "geometry": {"type": "Point", "coordinates": [-38.9542488, -12.2525652]}}, {"type": "Feature", "properties": {"tipo": "hospital", "nome": "Bambino"}, "geometry": {"type": "Point", "coordinates": [-38.9543587, -12.2539423]}}, {"type": "Feature", "properties": {"tipo": "veterinary", "nome": "Cat & Dog"}, "geometry": {"type": "Point", "coordinates": [-38.9581322, -12.2526574]}}, {"type": "Feature", "properties": {"tipo": "doctors", "nome": "Cl\u00ednica Maria Quiteria"}, "geometry": {"type": "Point", "coordinates": [-38.9548273, -12.2533068]}}, {"type": "Feature", "properties": {"tipo": "clinic", "nome": "Doen\u00e7as do Cora\u00e7\u00e3o"}, "geometry": {"type": "Point", "coordinates": [-38.9548605, -12.2541125]}}, {"type": "Feature", "properties": {"tipo": "pharmacy", "nome": "Drogasil"}, "geometry": {"type": "Point", "coordinates": [-38.9543114, -12.2522153]}}, {"type": "Feature", "properties": {"tipo": "pharmacy", "nome": "Farm\u00e1cia Silva"}, "geometry": {"type": "Point", "coordinates": [-38.9543711, -12.2543719]}}, {"type": "Feature", "properties": {"tipo": "clinic", "nome": "FisioSa\u00fade"}, "geometry": {"type": "Point", "coordinates": [-38.9579228, -12.2526615]}}, {"type": "Feature", "properties": {"tipo": "clinic", "nome": "Hospital Ortop\u00e9dico"}, "geometry": {"type": "Point", "coordinates": [-38.9569689, -12.2535693]}}, {"type": "Feature", "properties": {"tipo": "dentist", "nome": "Neocenter"}, "geometry": {"type": "Point", "coordinates": [-38.9570726, -12.2537963]}}, {"type": "Feature", "properties": {"tipo": "dentist", "nome": "Odonto Club"}, "geometry": {"type": "Point", "coordinates": [-38.954736, -12.2522699]}}, {"type": "Feature", "properties": {"tipo": "school", "nome": "Opera Idiomas"}, "geometry": {"type": "Point", "coordinates": [-38.9581086, -12.252357]}}, {"type": "Feature", "properties": {"tipo": "restaurant", "nome": "Oxente Menina"}, "geometry": {"type": "Point", "coordinates": [-38.9550677, -12.251854]}}, {"type": "Feature", "properties": {"tipo": "restaurant", "nome": "Para\u00edso da Carne do Sol"}, "geometry": {"type": "Point", "coordinates": [-38.9578859, -12.2519735]}}, {"type": "Feature", "properties": {"tipo": "dentist", "nome": "OdontoDia"}, "geometry": {"type": "Point", "coordinates": [-38.9589088, -12.2572779]}}, {"type": "Feature", "properties": {"tipo": "veterinary", "nome": "Bruno Viagens"}, "geometry": {"type": "Point", "coordinates": [-38.954542, -12.2554648]}}, {"type": "Feature", "properties": {"tipo": "restaurant", "nome": "Espa\u00e7o Vegetariano"}, "geometry": {"type": "Point", "coordinates": [-38.9579778, -12.251817]}}, {"type": "Feature", "properties": {"tipo": "pharmacy", "nome": "Posto 9 Academia"}, "geometry": {"type": "Point", "coordinates": [-38.958045, -12.2595261]}}, {"type": "Feature", "properties": {"tipo": "pub", "nome": "Arpoador Petisqueria"}, "geometry": {"type": "Point", "coordinates": [-38.947912, -12.2572095]}}, {"type": "Feature", "properties": {"tipo": "restaurant", "nome": "Cantina Aprile"}, "geometry": {"type": "Point", "coordinates": [-38.9480087, -12.2598638]}}, {"type": "Feature", "properties": {"tipo": "restaurant", "nome": "Maestro Titta"}, "geometry": {"type": "Point", "coordinates": [-38.9480194, -12.260063]}}, {"type": "Feature", "properties": {"tipo": "restaurant", "nome": "Casa do Acaraj\u00e9 e Restaurante"}, "geometry": {"type": "Point", "coordinates": [-38.9472416, -12.2555013]}}, {"type": "Feature", "properties": {"tipo": "fuel", "nome": "Verd's Frutas"}, "geometry": {"type": "Point", "coordinates": [-38.9476761, -12.2560255]}}, {"type": "Feature", "properties": {"tipo": "fast_food", "nome": "Sol de Ver\u00e3o Sorveteria e Pizzaria"}, "geometry": {"type": "Point", "coordinates": [-38.9547065, -12.2513653]}}, {"type": "Feature", "properties": {"tipo": "restaurant", "nome": "Bate Papo"}, "geometry": {"type": "Point", "coordinates": [-38.9547115, -12.2515645]}}, {"type": "Feature", "properties": {"tipo": "restaurant", "nome": "Cantina da Dinha"}, "geometry": {"type": "Point", "coordinates": [-38.9478853, -12.2613316]}}, {"type": "Feature", "properties": {"tipo": "restaurant", "nome": "Brasil Colonial Bistr\u00f4"}, "geometry": {"type": "Point", "coordinates": [-38.9482715, -12.2613316]}}, {"type": "Feature", "properties": {"tipo": "restaurant", "nome": "Kero Pizza"}, "geometry": {"type": "Point", "coordinates": [-38.9439961, -12.2568758]}}, {"type": "Feature", "properties": {"tipo": "bicycle_parking", "nome": "Laine Coiffeur"}, "geometry": {"type": "Point", "coordinates": [-38.9499064, -12.2538042]}}, {"type": "Feature", "properties": {"tipo": "fuel", "nome": "Gin\u00e1sio Municipal"}, "geometry": {"type": "Point", "coordinates": [-38.9591984, -12.2506173]}}, {"type": "Feature", "properties": {"tipo": "clinic", "nome": "Comunicare"}, "geometry": {"type": "Point", "coordinates": [-38.9554224, -12.2543374]}}, {"type": "Feature", "properties": {"tipo": "restaurant", "nome": "Ki Mistura"}, "geometry": {"type": "Point", "coordinates": [-38.9551383, -12.2649412]}}, {"type": "Feature", "properties": {"tipo": "restaurant", "nome": "\u00c1gua na Boca"}, "geometry": {"type": "Point", "coordinates": [-38.9551303, -12.264777]}}, {"type": "Feature", "properties": {"tipo": "theatre", "nome": "Teatro do CDL"}, "geometry": {"type": "Point", "coordinates": [-38.9679292, -12.2578385]}}, {"type": "Feature", "properties": {"tipo": "social_facility", "nome": "Lar de Idosos S\u00e3o Sebasti\u00e3o"}, "geometry": {"type": "Point", "coordinates": [-38.9455486, -12.2634411]}}, {"type": "Feature", "properties": {"tipo": "bar", "nome": "Boteco Vip"}, "geometry": {"type": "Point", "coordinates": [-38.9492342, -12.255247]}}, {"type": "Feature", "properties": {"tipo": "school", "nome": "Col\u00e9gio G\u00eanesis"}, "geometry": {"type": "Point", "coordinates": [-38.9469179, -12.2549208]}}, {"type": "Feature", "properties": {"tipo": "school", "nome": "Escola da Obra Promocional de Santana"}, "geometry": {"type": "Point", "coordinates": [-38.9547474, -12.2644279]}}, {"type": "Feature", "properties": {"tipo": "clinic", "nome": "Instituto de Reabilita\u00e7\u00e3o e Medicina Especializada - IRM"}, "geometry": {"type": "Point", "coordinates": [-38.9493476, -12.2568445]}}, {"type": "Feature", "properties": {"tipo": "place_of_worship", "nome": "Videira"}, "geometry": {"type": "Point", "coordinates": [-38.9451237, -12.2606015]}}, {"type": "Feature", "properties": {"tipo": "restaurant", "nome": "Restaurante Vitr\u00f4"}, "geometry": {"type": "Point", "coordinates": [-38.9549654, -12.2576014]}}, {"type": "Feature", "properties": {"tipo": "restaurant", "nome": "Gauch\u00e3o"}, "geometry": {"type": "Point", "coordinates": [-38.9547366, -12.2642287]}}, {"type": "Feature", "properties": {"tipo": "pharmacy", "nome": "Farm\u00e1cia Silva"}, "geometry": {"type": "Point", "coordinates": [-38.9669631, -12.2548403]}}, {"type": "Feature", "properties": {"tipo": "pharmacy", "nome": "Farm\u00e1cia Vida"}, "geometry": {"type": "Point", "coordinates": [-38.9641774, -12.255429]}}, {"type": "Feature", "properties": {"tipo": "pharmacy", "nome": "Farm\u00e1cia do Trabalhador"}, "geometry": {"type": "Point", "coordinates": [-38.9672763, -12.2551952]}}, {"type": "Feature", "properties": {"tipo": "dentist", "nome": "Life Odonto"}, "geometry": {"type": "Point", "coordinates": [-38.9671947, -12.2548106]}}, {"type": "Feature", "properties": {"tipo": "fuel", "nome": "Posto Modelo"}, "geometry": {"type": "Point", "coordinates": [-38.963905, -12.2549782]}}, {"type": "Feature", "properties": {"tipo": "atm", "nome": "Caixa Econ\u00f4mica Federal"}, "geometry": {"type": "Point", "coordinates": [-38.9643198, -12.2552429]}}, {"type": "Feature", "properties": {"tipo": "dentist", "nome": "Rizzo Odontologia"}, "geometry": {"type": "Point", "coordinates": [-38.9600194, -12.2581118]}}, {"type": "Feature", "properties": {"tipo": "clinic", "nome": "Gastros Bahia"}, "geometry": {"type": "Point", "coordinates": [-38.960033, -12.2586358]}}, {"type": "Feature", "properties": {"tipo": "veterinary", "nome": "AnimalMed"}, "geometry": {"type": "Point", "coordinates": [-38.9453423, -12.2595586]}}, {"type": "Feature", "properties": {"tipo": "fast_food", "nome": "Radiola Lanchonete Cultural"}, "geometry": {"type": "Point", "coordinates": [-38.9539718, -12.2488828]}}, {"type": "Feature", "properties": {"tipo": "post_office", "nome": "Camurujipe Encomendas"}, "geometry": {"type": "Point", "coordinates": [-38.9573853, -12.2593077]}}, {"type": "Feature", "properties": {"tipo": "cafe", "nome": "Mercato Cafeteria"}, "geometry": {"type": "Point", "coordinates": [-38.957976, -12.2585728]}}, {"type": "Feature", "properties": {"tipo": "post_office", "nome": "Novo Horizonte Encomendas"}, "geometry": {"type": "Point", "coordinates": [-38.9572874, -12.259585]}}, {"type": "Feature", "properties": {"tipo": "post_office", "nome": "\u00c1guia Branca Encomendas"}, "geometry": {"type": "Point", "coordinates": [-38.957436, -12.2591625]}}, {"type": "Feature", "properties": {"tipo": "clinic", "nome": "Gastros Bahia"}, "geometry": {"type": "Point", "coordinates": [-38.9572454, -12.2543901]}}, {"type": "Feature", "properties": {"tipo": "clinic", "nome": "You odontologia"}, "geometry": {"type": "Point", "coordinates": [-38.9591161, -12.2551479]}}, {"type": "Feature", "properties": {"tipo": "place_of_worship", "nome": "Loja Ma\u00e7\u00f4nica"}, "geometry": {"type": "Point", "coordinates": [-38.9592215, -12.2557485]}}, {"type": "Feature", "properties": {"tipo": "studio", "nome": "R\u00e1dio Jovem Pan"}, "geometry": {"type": "Point", "coordinates": [-38.9565678, -12.2520397]}}, {"type": "Feature", "properties": {"tipo": "dentist", "nome": "Cl\u00ednica Orthos"}, "geometry": {"type": "Point", "coordinates": [-38.9592623, -12.2535299]}}, {"type": "Feature", "properties": {"tipo": "restaurant", "nome": "Bar do Roque"}, "geometry": {"type": "Point", "coordinates": [-38.9506592, -12.2588359]}}, {"type": "Feature", "properties": {"tipo": "post_box", "nome": "Nutrimar Kalil\u00e2ndia"}, "geometry": {"type": "Point", "coordinates": [-38.9571004, -12.2536651]}}, {"type": "Feature", "properties": {"tipo": "cafe", "nome": "Academia Sublime das Artes"}, "geometry": {"type": "Point", "coordinates": [-38.9642807, -12.2599226]}}, {"type": "Feature", "properties": {"tipo": "clinic", "nome": "Reference Dental Institute"}, "geometry": {"type": "Point", "coordinates": [-38.9451154, -12.2573442]}}, {"type": "Feature", "properties": {"tipo": "motorcycle_parking", "nome": "Zig Cal\u00e7ados"}, "geometry": {"type": "Point", "coordinates": [-38.9667197, -12.251708]}}]}